{
   "type": "FeatureCollection",
   "features": [
  {
    "type": "Feature",
    "geometry": {
       "type": "Point",
       "coordinates":  [ 135.22758,34.87581 ]
    },
    "properties": {
    "A27_005":28219,
    "A27_006":"",
    "A27_007":"八景中学校",
    "A27_008":"",
    "label":"八景中学校"
    }
  },
  {
    "type": "Feature",
    "geometry": {
       "type": "Point",
       "coordinates":  [ 135.23698,34.91334 ]
    },
    "properties": {
    "A27_005":28219,
    "A27_006":"",
    "A27_007":"上野台中学校",
    "A27_008":"",
    "label":"上野台中学校"
    }
  },
  {
    "type": "Feature",
    "geometry": {
       "type": "Point",
       "coordinates":  [ 135.17998,34.94259 ]
    },
    "properties": {
    "A27_005":28219,
    "A27_006":"",
    "A27_007":"長坂中学校",
    "A27_008":"",
    "label":"長坂中学校"
    }
  },
  {
    "type": "Feature",
    "geometry": {
       "type": "Point",
       "coordinates":  [ 135.13882,34.94897 ]
    },
    "properties": {
    "A27_005":28219,
    "A27_006":"",
    "A27_007":"藍中学校",
    "A27_008":"",
    "label":"藍中学校"
    }
  },
  {
    "type": "Feature",
    "geometry": {
       "type": "Point",
       "coordinates":  [ 135.20335,34.87968 ]
    },
    "properties": {
    "A27_005":28219,
    "A27_006":"",
    "A27_007":"狭間中学校",
    "A27_008":"",
    "label":"狭間中学校"
    }
  },
  {
    "type": "Feature",
    "geometry": {
       "type": "Point",
       "coordinates":  [ 135.18687,34.88686 ]
    },
    "properties": {
    "A27_005":28219,
    "A27_006":"",
    "A27_007":"富士中学校",
    "A27_008":"",
    "label":"富士中学校"
    }
  },
  {
    "type": "Feature",
    "geometry": {
       "type": "Point",
       "coordinates":  [ 135.19116,34.90632 ]
    },
    "properties": {
    "A27_005":28219,
    "A27_006":"",
    "A27_007":"けやき台中学校",
    "A27_008":"",
    "label":"けやき台中学校"
    }
  },
  {
    "type": "Feature",
    "geometry": {
       "type": "Point",
       "coordinates":  [ 135.17685,34.9043 ]
    },
    "properties": {
    "A27_005":28219,
    "A27_006":"",
    "A27_007":"ゆりのき台中学校",
    "A27_008":"",
    "label":"ゆりのき台中学校"
    }
  }
]
}
